[
  {
    "Name": "Abel Wang",
    "Conference": "Visual Studio Live",
    "From": "3/13/2017",
    "To": "3/17/2017",
    "Location": "Las Vegas",
    "Link": "https://vslive.com/Home.aspx",
    "Latitude": 36.1699412,
    "Longitude": -115.1398296
  },
  {
    "Name": "Abel Wang",
    "Conference": "Tech Summit 2017 Amsterdam",
    "From": "3/20/2017",
    "To": "3/21/2017",
    "Location": "Amsterdam",
    "Link": "https://www.microsoft.com/en-us/techsummit/default.aspx",
    "Latitude": 52.3702157,
    "Longitude": 4.895167900000001
  },
  {
    "Name": "Abel Wang",
    "Conference": "Tech Summit 2017 Milan",
    "From": "3/20/2017",
    "To": "3/21/2017",
    "Location": "Milan",
    "Link": "https://www.microsoft.com/en-us/techsummit/default.aspx",
    "Latitude": 45.4642035,
    "Longitude": 9.189982
  },
  {
    "Name": "Abel Wang",
    "Conference": "TechSummit 2017 Seoul",
    "From": "4/26/2017",
    "To": "4/27/2017",
    "Location": "Seoul",
    "Link": "https://www.microsoft.com/en-us/techsummit/default.aspx",
    "Latitude": 37.566535,
    "Longitude": 126.9779692
  },
  {
    "Name": "Abel Wang",
    "Conference": "Velocity",
    "From": "6/19/2017",
    "To": "6/21/2017",
    "Location": "San Jose",
    "Link": "https://conferences.oreilly.com/velocity/vl-ca",
    "Latitude": 37.3382082,
    "Longitude": -121.8863286
  },
  {
    "Name": "Abel Wang",
    "Conference": "VSLive Redmond",
    "From": "8/15/2017",
    "To": "8/16/2017",
    "Location": "Redmond",
    "Link": "https://vslive.com/Home.aspx",
    "Latitude": 47.6739881,
    "Longitude": -122.121512
  },
  {
    "Name": "Abel Wang",
    "Conference": "Jenkins World",
    "From": "8/29/2017",
    "To": "8/31/2017",
    "Location": "San Francisco",
    "Link": "https://www.cloudbees.com/jenkinsworld/home",
    "Latitude": 37.7749295,
    "Longitude": -122.4194155
  },
  {
    "Name": "Abel Wang",
    "Conference": "Minneapolis Azure Conference",
    "From": "9/7/2017",
    "To": "9/7/2017",
    "Location": "Minneapolis",
    "Link": "",
    "Latitude": 44.977753,
    "Longitude": -93.2650108
  },
  {
    "Name": "Abel Wang",
    "Conference": "Visual Studio Partner Summit",
    "From": "9/20/2017",
    "To": "9/21/2017",
    "Location": "Redmond",
    "Link": "https://vspartner.com/external/summit2017",
    "Latitude": 47.6739881,
    "Longitude": -122.121512
  },
  {
    "Name": "Abel Wang",
    "Conference": "MSIgnite 2017",
    "From": "9/24/2017",
    "To": "9/29/2017",
    "Location": "Orlando, FL",
    "Link": "https://www.microsoft.com/en-us/ignite/default.aspx",
    "Latitude": 28.5383355,
    "Longitude": -81.3792365
  },
  {
    "Name": "Abel Wang",
    "Conference": "Minnesota Developer Conference",
    "From": "10/2/2017",
    "To": "10/2/2017",
    "Location": "Minneapolis",
    "Link": "http://mdc.ilmservice.com/",
    "Latitude": 44.977753,
    "Longitude": -93.2650108
  },
  {
    "Name": "Abel Wang",
    "Conference": "AppConn - Budapest",
    "From": "10/10/2017",
    "To": "10/11/2017",
    "Location": "Budapest",
    "Link": "",
    "Latitude": 47.497912,
    "Longitude": 19.040235
  },
  {
    "Name": "Abel Wang",
    "Conference": "VS Live -Anaheim",
    "From": "10/16/2017",
    "To": "10/17/2017",
    "Location": "Anaheim",
    "Link": "https://vslive.com/Home.aspx",
    "Latitude": 33.8365932,
    "Longitude": -117.9143012
  },
  {
    "Name": "Abel Wang",
    "Conference": "AppConn - Houston",
    "From": "11/1/2017",
    "To": "11/2/2017",
    "Location": "Houston, TX",
    "Link": "",
    "Latitude": 29.7604267,
    "Longitude": -95.3698028
  },
  {
    "Name": "Abel Wang",
    "Conference": "AppConn - Thailand",
    "From": "11/9/2017",
    "To": "11/10/2017",
    "Location": "Bangkok",
    "Link": "",
    "Latitude": 13.7563309,
    "Longitude": 100.5017651
  },
  {
    "Name": "Abel Wang",
    "Conference": "MS Connect",
    "From": "11/15/2017",
    "To": "11/17/2017",
    "Location": "NYC",
    "Link": "https://www.microsoft.com/en-us/connectevent",
    "Latitude": 40.7127753,
    "Longitude": -74.0059728
  },
  {
    "Name": "Abel Wang",
    "Conference": "Tech Summit 2017 Amsterdam",
    "From": "3/20/2017",
    "To": "3/21/2017",
    "Location": "Amsterdam",
    "Link": "https://www.microsoft.com/en-us/techsummit/default.aspx",
    "Latitude": 52.3702157,
    "Longitude": 4.895167900000001
  },
  {
    "Name": "Abel Wang",
    "Conference": "Tech Summit 2017 Milan",
    "From": "3/20/2017",
    "To": "3/21/2017",
    "Location": "Milan",
    "Link": "https://www.microsoft.com/en-us/techsummit/default.aspx",
    "Latitude": 45.4642035,
    "Longitude": 9.189982
  },
  {
    "Name": "Abel Wang",
    "Conference": "TechSummit 2017 Seoul",
    "From": "4/26/2017",
    "To": "4/27/2017",
    "Location": "Seoul",
    "Link": "https://www.microsoft.com/en-us/techsummit/default.aspx",
    "Latitude": 37.566535,
    "Longitude": 126.9779692
  },
  {
    "Name": "Abel Wang",
    "Conference": "MSIgnite 2017",
    "From": "9/24/2017",
    "To": "9/29/2017",
    "Location": "Orlando, FL",
    "Link": "https://www.microsoft.com/en-us/ignite/default.aspx",
    "Latitude": 28.5383355,
    "Longitude": -81.3792365
  },
  {
    "Name": "Alena Hall",
    "Conference": "OSCON",
    "From": "5/8/2017",
    "To": "5/11/2017",
    "Location": "Austin, TX",
    "Link": "https://conferences.oreilly.com/oscon/oscon-tx/public/schedule/detail/56877",
    "Latitude": 30.267153,
    "Longitude": -97.7430608
  },
  {
    "Name": "Alena Hall",
    "Conference": "Seattle Scalability",
    "From": "6/21/2017",
    "To": "6/21/2017",
    "Location": "Seattle, WA",
    "Link": "https://www.meetup.com/Seattle-Scalability-Meetup/events/239225314/",
    "Latitude": 47.6062095,
    "Longitude": -122.3320708
  },
  {
    "Name": "Alena Hall",
    "Conference": "Open FSharp",
    "From": "9/28/2017",
    "To": "9/30/2017",
    "Location": "San Francisco, CA",
    "Link": "http://www.openfsharp.org/schedule.html",
    "Latitude": 37.7749295,
    "Longitude": -122.4194155
  },
  {
    "Name": "Anthony Chu",
    "Conference": "SQL Saturday Vancouver",
    "From": "8/25/2017",
    "To": "8/26/2017",
    "Location": "Vancouver",
    "Link": "http://www.sqlsaturday.com/635/",
    "Latitude": 49.2827291,
    "Longitude": -123.1207375
  },
  {
    "Name": "Anthony Chu",
    "Conference": "Seattle Code Camp",
    "From": "9/8/2017",
    "To": "9/9/2017",
    "Location": "Seattle",
    "Link": "https://seattle.codecamp.us/",
    "Latitude": 47.6062095,
    "Longitude": -122.3320708
  },
  {
    "Name": "Ashley McNamara",
    "Conference": "CraftConf",
    "From": "4/27/2017",
    "To": "3/31/2017",
    "Location": "Budapest",
    "Link": "",
    "Latitude": 47.497912,
    "Longitude": 19.040235
  },
  {
    "Name": "Ashley McNamara",
    "Conference": "OSCON",
    "From": "5/8/2017",
    "To": "5/11/2017",
    "Location": "Austin",
    "Link": "",
    "Latitude": 30.267153,
    "Longitude": -97.7430608
  },
  {
    "Name": "Ashley McNamara",
    "Conference": "SDxE",
    "From": "9/25/2017",
    "To": "9/27/2017",
    "Location": "Austin",
    "Link": "",
    "Latitude": 30.267153,
    "Longitude": -97.7430608
  },
  {
    "Name": "Ashley McNamara",
    "Conference": "Dockercon",
    "From": "10/16/2017",
    "To": "10/19/2017",
    "Location": "Copenhagen",
    "Link": "",
    "Latitude": 55.6760968,
    "Longitude": 12.5683372
  },
  {
    "Name": "Ashley McNamara",
    "Conference": "GALS CH9",
    "From": "10/24/2017",
    "To": "10/24/2017",
    "Location": "Seattle",
    "Link": "",
    "Latitude": 47.6062095,
    "Longitude": -122.3320708
  },
  {
    "Name": "Ashley McNamara",
    "Conference": "OpenDev",
    "From": "10/25/2017",
    "To": "10/25/2017",
    "Location": "Seattle",
    "Link": "",
    "Latitude": 47.6062095,
    "Longitude": -122.3320708
  },
  {
    "Name": "Ashley McNamara",
    "Conference": "Gophercon Brazil",
    "From": "11/13/2017",
    "To": "11/17/2017",
    "Location": "Brazil",
    "Link": "",
    "Latitude": -14.235004,
    "Longitude": -51.92528
  },
  {
    "Name": "Ashley McNamara",
    "Conference": "Gophercon",
    "From": "7/13/2017",
    "To": "7/15/2017",
    "Location": "Denver",
    "Link": "",
    "Latitude": 39.7392358,
    "Longitude": -104.990251
  },
  {
    "Name": "Ashley McNamara",
    "Conference": "Gophercon UK",
    "From": "8/16/2017",
    "To": "8/18/2017",
    "Location": "London",
    "Link": "",
    "Latitude": 51.5073509,
    "Longitude": -0.1277583
  },
  {
    "Name": "Ashley McNamara",
    "Conference": "DevOps Days Raleigh",
    "From": "9/7/2017",
    "To": "9/8/2017",
    "Location": "Raleigh",
    "Link": "",
    "Latitude": 35.7795897,
    "Longitude": -78.6381787
  },
  {
    "Name": "Ashley McNamara",
    "Conference": "vJUG24",
    "From": "10/25/2017",
    "To": "10/25/2017",
    "Location": "Austin",
    "Link": "",
    "Latitude": 30.267153,
    "Longitude": -97.7430608
  },
  {
    "Name": "Asim Hussain",
    "Conference": "NG-NL",
    "From": "3/16/2017",
    "To": "3/16/2017",
    "Location": "Amsterdam",
    "Link": "https://ng-nl.org/",
    "Latitude": 52.3702157,
    "Longitude": 4.895167900000001
  },
  {
    "Name": "Asim Hussain",
    "Conference": "Ng Conf",
    "From": "4/18/2017",
    "To": "4/20/2017",
    "Location": "Salt Lake City",
    "Link": "https://www.ng-conf.org/",
    "Latitude": 40.7607793,
    "Longitude": -111.8910474
  },
  {
    "Name": "Asim Hussain",
    "Conference": "Angular Camp",
    "From": "6/7/2017",
    "To": "7/7/2017",
    "Location": "Barcelona",
    "Link": "https://2017.angularcamp.org/",
    "Latitude": 41.3850639,
    "Longitude": 2.1734035
  },
  {
    "Name": "Asim Hussain",
    "Conference": "Angular UP",
    "From": "7/25/2017",
    "To": "7/25/2017",
    "Location": "Tel Aviv",
    "Link": "http://angular-up.com/",
    "Latitude": 32.0852999,
    "Longitude": 34.78176759999999
  },
  {
    "Name": "Asim Hussain",
    "Conference": "Lviv JS",
    "From": "8/26/2017",
    "To": "8/26/2017",
    "Location": "Lviv",
    "Link": "http://lvivjs.org.ua/",
    "Latitude": 49.839683,
    "Longitude": 24.029717
  },
  {
    "Name": "Asim Hussain",
    "Conference": "FrontEnd Con",
    "From": "9/20/2017",
    "To": "9/22/2017",
    "Location": "Warsaw",
    "Link": "http://frontend-con.io/",
    "Latitude": 52.2296756,
    "Longitude": 21.0122287
  },
  {
    "Name": "Asim Hussain",
    "Conference": "DefFest Nantes",
    "From": "10/18/2017",
    "To": "10/20/2017",
    "Location": "Nantes",
    "Link": "https://devfest.gdgnantes.com/",
    "Latitude": 47.218371,
    "Longitude": -1.553621
  },
  {
    "Name": "Asim Hussain",
    "Conference": "KharkivJS",
    "From": "10/28/2017",
    "To": "10/29/2017",
    "Location": "Kharkiv",
    "Link": "http://kharkivjs.org/",
    "Latitude": 49.9935,
    "Longitude": 36.230383
  },
  {
    "Name": "Asim Hussain",
    "Conference": "Angular Connect",
    "From": "11/6/2017",
    "To": "11/8/2017",
    "Location": "London",
    "Link": "https://www.angularconnect.com/",
    "Latitude": 51.5073509,
    "Longitude": -0.1277583
  },
  {
    "Name": "Asim Hussain",
    "Conference": "PyCon Canada",
    "From": "11/18/2017",
    "To": "11/19/2017",
    "Location": "Montreal",
    "Link": "https://2017.pycon.ca/",
    "Latitude": 45.5016889,
    "Longitude": -73.567256
  },
  {
    "Name": "Asim Hussain",
    "Conference": "FinJS",
    "From": "11/27/2017",
    "To": "11/28/2017",
    "Location": "London",
    "Link": "http://finjs.io/",
    "Latitude": 51.5073509,
    "Longitude": -0.1277583
  },
  {
    "Name": "Asim Hussain",
    "Conference": "Code Europe",
    "From": "12/4/2017",
    "To": "12/6/2017",
    "Location": "Krakow",
    "Link": "https://www.codeeurope.pl/",
    "Latitude": 50.06465009999999,
    "Longitude": 19.9449799
  },
  {
    "Name": "Asim Hussain",
    "Conference": "ng Belgium",
    "From": "12/8/2017",
    "To": "12/8/2017",
    "Location": "Belgium",
    "Link": "https://ng-be.org",
    "Latitude": 50.503887,
    "Longitude": 4.469936
  },
  {
    "Name": "Brian Benz",
    "Conference": "JavaOne San Francisco",
    "From": "9/28/2017",
    "To": "10/5/2017",
    "Location": "San Francisco",
    "Link": "https://www.pluralsight.com/event-details/2017/live-2017",
    "Latitude": 37.7749295,
    "Longitude": -122.4194155
  },
  {
    "Name": "Brian Benz",
    "Conference": "JavaOne Partner evening event",
    "From": "10/1/2017",
    "To": "10/3/2017",
    "Location": "San Francisco",
    "Link": "https://vslive.com/events/redmond-2017",
    "Latitude": 37.7749295,
    "Longitude": -122.4194155
  },
  {
    "Name": "Brian Benz",
    "Conference": "EclipseCon EU",
    "From": "10/23/2017",
    "To": "10/26/2017",
    "Location": "Ludwigdburg",
    "Link": "https://www.golanguk.com/",
    "Latitude": 48.8940624,
    "Longitude": 9.195464
  },
  {
    "Name": "Brian Benz",
    "Conference": "Belfast Java User Group",
    "From": "10/29/2017",
    "To": "10/30/2017",
    "Location": "Belfast",
    "Link": "https://uptime.events/",
    "Latitude": 54.59728500000001,
    "Longitude": -5.93012
  },
  {
    "Name": "Brian Benz",
    "Conference": "Dublin Java User Group",
    "From": "10/30/2017",
    "To": "10/31/2017",
    "Location": "Dublin",
    "Link": "https://onlinexperiences.com/scripts/Server.nxp?LASCmd=AI:4;F:QS!10100&ShowKey=42620",
    "Latitude": 53.3498053,
    "Longitude": -6.2603097
  },
  {
    "Name": "Brian Benz",
    "Conference": "JFall Utrecht",
    "From": "10/31/2017",
    "To": "11/2/2017",
    "Location": "Utrecht",
    "Link": "https://ng-atl.org",
    "Latitude": 52.09073739999999,
    "Longitude": 5.1214201
  },
  {
    "Name": "Brian Benz",
    "Conference": "Oredev",
    "From": "11/5/2017",
    "To": "11/10/2017",
    "Location": "Malmo",
    "Link": "lvivjs.org.ua",
    "Latitude": 55.604981,
    "Longitude": 13.003822
  },
  {
    "Name": "Brian Benz",
    "Conference": "Devoxx Morocco",
    "From": "11/13/2017",
    "To": "11/16/2017",
    "Location": "Morocco",
    "Link": "",
    "Latitude": 31.791702,
    "Longitude": -7.092619999999999
  },
  {
    "Name": "Brian Benz",
    "Conference": "SpringOne San Francisco",
    "From": "11/27/2017",
    "To": "12/7/2017",
    "Location": "San Francisco",
    "Link": "https://yougottalovefrontend.com/",
    "Latitude": 37.7749295,
    "Longitude": -122.4194155
  },
  {
    "Name": "Brian Clark",
    "Conference": "ngAtl",
    "From": "1/30/2018",
    "To": "2/2/2018",
    "Location": "Atlanta",
    "Link": "https://www.cloudbees.com/jenkinsworld/home",
    "Latitude": 33.7489954,
    "Longitude": -84.3879824
  },
  {
    "Name": "Brian Clark",
    "Conference": "Ignite",
    "From": "9/22/2017",
    "To": "9/29/2017",
    "Location": "Orlando",
    "Link": "http://angularconnect.com/",
    "Latitude": 28.5383355,
    "Longitude": -81.3792365
  },
  {
    "Name": "Brian Clark",
    "Conference": "Node.js Interactive",
    "From": "10/3/2017",
    "To": "10/6/2017",
    "Location": "Vancouver",
    "Link": "https://www.microsoft.com/en-us/ignite/",
    "Latitude": 49.2827291,
    "Longitude": -123.1207375
  },
  {
    "Name": "Brian Clark",
    "Conference": "AngularMix",
    "From": "10/9/2017",
    "To": "10/12/2017",
    "Location": "Orlando",
    "Link": "\"Serverless tour\"",
    "Latitude": 28.5383355,
    "Longitude": -81.3792365
  },
  {
    "Name": "Brian Clark",
    "Conference": "AngleBrackets",
    "From": "4/18/2017",
    "To": "5/24/2017",
    "Location": "Orlando",
    "Link": "",
    "Latitude": 28.5383355,
    "Longitude": -81.3792365
  },
  {
    "Name": "Brian Clark",
    "Conference": "AngleBrackets",
    "From": "10/28/2017",
    "To": "10/31/2017",
    "Location": "Las Vegas",
    "Link": "https://2017.fullstackfest.com/",
    "Latitude": 36.1699412,
    "Longitude": -115.1398296
  },
  {
    "Name": "Brian Clark",
    "Conference": "Nodevember",
    "From": "11/17/2017",
    "To": "11/28/2017",
    "Location": "Nashville",
    "Link": "",
    "Latitude": 36.1626638,
    "Longitude": -86.7816016
  },
  {
    "Name": "Brian Clark",
    "Conference": "360 Live",
    "From": "11/12/2017",
    "To": "11/17/2017",
    "Location": "Orlando",
    "Link": "",
    "Latitude": 28.5383355,
    "Longitude": -81.3792365
  },
  {
    "Name": "Brian Ketelsen",
    "Conference": "dotGo",
    "From": "11/6/2017",
    "To": "11/6/2017",
    "Location": "London",
    "Link": "https://eventloom.com/event/home/summit2017",
    "Latitude": 51.5073509,
    "Longitude": -0.1277583
  },
  {
    "Name": "Brian Ketelsen",
    "Conference": "CodeMotion",
    "From": "11/10/2017",
    "To": "11/11/2017",
    "Location": "Milan",
    "Link": "",
    "Latitude": 45.4642035,
    "Longitude": 9.189982
  },
  {
    "Name": "Bridget Kromhout",
    "Conference": "SREcon Americas",
    "From": "3/13/2017",
    "To": "3/14/2017",
    "Location": "San Francisco",
    "Link": "http://devupconf.org/",
    "Latitude": 37.7749295,
    "Longitude": -122.4194155
  },
  {
    "Name": "Bridget Kromhout",
    "Conference": "Agile Technical Conference",
    "From": "4/19/2017",
    "To": "4/21/2017",
    "Location": "Boston, MA",
    "Link": "http://visfest.com/d3unconf-2017/",
    "Latitude": 42.3600825,
    "Longitude": -71.0588801
  },
  {
    "Name": "Bridget Kromhout",
    "Conference": "GOTO Chicago",
    "From": "5/1/2017",
    "To": "5/4/2017",
    "Location": "Chicago",
    "Link": "https://www.devopsdays.org/events/2017-raleigh/welcome/",
    "Latitude": 41.8781136,
    "Longitude": -87.6297982
  },
  {
    "Name": "Bridget Kromhout",
    "Conference": "Open South North",
    "From": "6/8/2017",
    "To": "6/8/2017",
    "Location": "Minneapolis",
    "Link": "",
    "Latitude": 44.977753,
    "Longitude": -93.2650108
  },
  {
    "Name": "Bridget Kromhout",
    "Conference": "Cloud Foundry Summit",
    "From": "6/13/2017",
    "To": "6/15/2017",
    "Location": "Santa Clara",
    "Link": "",
    "Latitude": 37.3541079,
    "Longitude": -121.9552356
  },
  {
    "Name": "Bridget Kromhout",
    "Conference": "Velocity San Jose",
    "From": "6/19/2017",
    "To": "6/22/2017",
    "Location": "San Jose",
    "Link": "",
    "Latitude": 37.3382082,
    "Longitude": -121.8863286
  },
  {
    "Name": "Bridget Kromhout",
    "Conference": "Uptime - Ops and Systems Programming Conference",
    "From": "8/24/2017",
    "To": "8/25/2017",
    "Location": "Pittsburgh",
    "Link": "http://events.linuxfoundation.org/events/open-source-summit-north-america",
    "Latitude": 40.44062479999999,
    "Longitude": -79.9958864
  },
  {
    "Name": "Bridget Kromhout",
    "Conference": "devopsdays Philadelphia",
    "From": "10/24/2017",
    "To": "10/25/2017",
    "Location": "Philadelphia",
    "Link": "https://blog.jeremylikness.com/atlanta-code-camp-2017-serverless-net-da640edd59e9",
    "Latitude": 39.9525839,
    "Longitude": -75.1652215
  },
  {
    "Name": "Bridget Kromhout",
    "Conference": "O'Reilly Software Architecture",
    "From": "4/2/2017",
    "To": "4/5/2017",
    "Location": "New York City, NY",
    "Link": "http://finjs.io/",
    "Latitude": 40.7127753,
    "Longitude": -74.0059728
  },
  {
    "Name": "Bridget Kromhout",
    "Conference": "All Things Open",
    "From": "10/23/2017",
    "To": "10/24/2017",
    "Location": "Raleigh",
    "Link": "https://allthingsopen.org/",
    "Latitude": 35.7795897,
    "Longitude": -78.6381787
  },
  {
    "Name": "Burke Holland",
    "Conference": "ConnectJS",
    "From": "9/19/2017",
    "To": "9/22/2017",
    "Location": "Atlanta",
    "Link": "http://connect.tech",
    "Latitude": 33.7489954,
    "Longitude": -84.3879824
  },
  {
    "Name": "Burke Holland",
    "Conference": "The Web Unleashed",
    "From": "9/24/2017",
    "To": "9/26/2017",
    "Location": "Toronto, Canada",
    "Link": "http://fitc.ca/event/webu17/",
    "Latitude": 43.653226,
    "Longitude": -79.3831843
  },
  {
    "Name": "Burke Holland",
    "Conference": "DevUp",
    "From": "10/13/2017",
    "To": "10/16/2017",
    "Location": "St. Louis",
    "Link": "http://devupconf.org/",
    "Latitude": 38.6270025,
    "Longitude": -90.19940419999999
  },
  {
    "Name": "Burke Holland",
    "Conference": "Certified Fresh",
    "From": "10/19/2017",
    "To": "10/20/2017",
    "Location": "Online",
    "Link": "https://certifiedfreshevents.com/",
    "Latitude": 36.146636,
    "Longitude": -95.90194
  },
  {
    "Name": "Burke Holland",
    "Conference": "Dev Intersection",
    "From": "10/31/2017",
    "To": "11/2/2017",
    "Location": "Las Vegas",
    "Link": "https://www.devintersection.com/#!/",
    "Latitude": 36.1699412,
    "Longitude": -115.1398296
  },
  {
    "Name": "Burke Holland",
    "Conference": "DevReach",
    "From": "11/12/2017",
    "To": "11/14/2017",
    "Location": "Sofia Bulgaria",
    "Link": "http://devreach.com/",
    "Latitude": 42.6977082,
    "Longitude": 23.3218675
  },
  {
    "Name": "Damian Brady",
    "Conference": "Ignite",
    "From": "9/25/2017",
    "To": "9/29/2017",
    "Location": "Orlando",
    "Link": "https://www.microsoft.com/en-us/ignite/default.aspx",
    "Latitude": 28.5383355,
    "Longitude": -81.3792365
  },
  {
    "Name": "Damian Brady",
    "Conference": "TechBash",
    "From": "10/4/2017",
    "To": "10/6/2017",
    "Location": "Pennsylvania",
    "Link": "https://techbash.com/",
    "Latitude": 41.2033216,
    "Longitude": -77.1945247
  },
  {
    "Name": "Damian Brady",
    "Conference": "Prairie Dev Con Deliver",
    "From": "10/10/2017",
    "To": "10/12/2017",
    "Location": "Winnipeg",
    "Link": "http://www.prdcdeliver.com/",
    "Latitude": 49.895136,
    "Longitude": -97.13837439999999
  },
  {
    "Name": "Damian Brady",
    "Conference": "TechDays NL",
    "From": "10/11/2017",
    "To": "10/13/2017",
    "Location": "Amsterdam",
    "Link": "https://www.techdays.nl/",
    "Latitude": 52.3702157,
    "Longitude": 4.895167900000001
  },
  {
    "Name": "Damian Brady",
    "Conference": "Visual Studio Live 360",
    "From": "11/7/2017",
    "To": "11/17/2017",
    "Location": "Orlando",
    "Link": "https://vslive.com/ECG/live360events/Events/Orlando-2017/VSLive.aspx",
    "Latitude": 28.5383355,
    "Longitude": -81.3792365
  },
  {
    "Name": "Damian Brady",
    "Conference": "ConFoo",
    "From": "12/4/2017",
    "To": "12/6/2017",
    "Location": "Vancouver",
    "Link": "https://confoo.ca/en/yvr2017",
    "Latitude": 49.2827291,
    "Longitude": -123.1207375
  },
  {
    "Name": "Donovan Brown",
    "Conference": "DEVintersection",
    "From": "5/21/2017",
    "To": "5/24/2017",
    "Location": "Orlando",
    "Link": "https://devintersection.com/#!/Visual-Studio-ASP-Azure-Conference/",
    "Latitude": 28.5383355,
    "Longitude": -81.3792365
  },
  {
    "Name": "Donovan Brown",
    "Conference": "Techorama",
    "From": "5/22/2017",
    "To": "5/24/2017",
    "Location": "",
    "Link": "https://techorama.be/"
  },
  {
    "Name": "Donovan Brown",
    "Conference": "Dutch MS ALM Group",
    "From": "5/29/2017",
    "To": "5/29/2017",
    "Location": "",
    "Link": "https://www.meetup.com/Dutch-Microsoft-ALM-Group/events/236353322/"
  },
  {
    "Name": "Donovan Brown",
    "Conference": "Scottish Developers",
    "From": "6/6/2017",
    "To": "6/6/2017",
    "Location": "Glasgow",
    "Link": "https://scottishdevelopers.com/",
    "Latitude": 55.864237,
    "Longitude": -4.251806
  },
  {
    "Name": "Donovan Brown",
    "Conference": "Scottish Developers",
    "From": "6/7/2017",
    "To": "6/7/2017",
    "Location": "Edinburgh",
    "Link": "https://scottishdevelopers.com/",
    "Latitude": 55.953252,
    "Longitude": -3.188267
  },
  {
    "Name": "Donovan Brown",
    "Conference": "Scottish Developers",
    "From": "6/8/2017",
    "To": "6/8/2017",
    "Location": "Aberdeen",
    "Link": "https://scottishdevelopers.com/",
    "Latitude": 57.149717,
    "Longitude": -2.094278
  },
  {
    "Name": "Donovan Brown",
    "Conference": "Cambridge .NET User Group",
    "From": "6/12/2017",
    "To": "6/12/2017",
    "Location": "Cambridge",
    "Link": "https://www.meetup.com/Cambridge-NET-User-Group/events/237509818/?utm_content=bufferaede2&utm_medium=social&utm_source=twitter.com&utm_campaign=buffer",
    "Latitude": 52.205337,
    "Longitude": 0.121817
  },
  {
    "Name": "Donovan Brown",
    "Conference": "Swedish Microsoft ALM and DevOps",
    "From": "6/14/2017",
    "To": "6/14/2017",
    "Location": "Stockholm",
    "Link": "https://www.meetup.com/swedish-ms-alm-devops/events/237449414/",
    "Latitude": 59.32932349999999,
    "Longitude": 18.0685808
  },
  {
    "Name": "Donovan Brown",
    "Conference": ".NET Aarhus User Group",
    "From": "6/19/2017",
    "To": "6/19/2017",
    "Location": "Aarhus",
    "Link": "https://www.facebook.com/events/252955858443355/",
    "Latitude": 56.162939,
    "Longitude": 10.203921
  },
  {
    "Name": "Donovan Brown",
    "Conference": ".NET Copenhagen User Group",
    "From": "6/22/2017",
    "To": "6/22/2017",
    "Location": "Copenhagen",
    "Link": "",
    "Latitude": 55.6760968,
    "Longitude": 12.5683372
  },
  {
    "Name": "Donovan Brown",
    "Conference": "Azure Saturday",
    "From": "6/24/2017",
    "To": "6/24/2017",
    "Location": "Munich",
    "Link": "https://azuresaturday.de/",
    "Latitude": 48.1351253,
    "Longitude": 11.5819805
  },
  {
    "Name": "Donovan Brown",
    "Conference": "Developer Week",
    "From": "6/26/2017",
    "To": "6/29/2017",
    "Location": "Nurmberg",
    "Link": "http://www.developer-week.de/",
    "Latitude": 49.4521018,
    "Longitude": 11.0766654
  },
  {
    "Name": "Jeremy Likness",
    "Conference": "DevNexus 2017: Angular and TypeScript Workshop",
    "From": "2/22/2017",
    "To": "2/22/2017",
    "Location": "Atlanta, GA",
    "Link": "https://github.com/JeremyLikness/ng2ts-workshop-v2",
    "Latitude": 33.7489954,
    "Longitude": -84.3879824
  },
  {
    "Name": "Jeremy Likness",
    "Conference": "Code Career Academy: TypeScript, JavaScript's Safety Harness",
    "From": "3/23/2017",
    "To": "3/23/2017",
    "Location": "Lawrenceville, GA",
    "Link": "https://www.meetup.com/Code-Career-Academy-Meetups-Gwinnett/events/237645432/",
    "Latitude": 33.9562149,
    "Longitude": -83.9879625
  },
  {
    "Name": "Jeremy Likness",
    "Conference": "Music City Code 2017: Rapid Dev with Angular and TypeScript and Contain Your Excitement (Docker)",
    "From": "6/1/2017",
    "To": "6/3/2017",
    "Location": "Nashville, TN",
    "Link": "https://blog.jeremylikness.com/music-city-code-2017-e78e6279a60b",
    "Latitude": 36.1626638,
    "Longitude": -86.7816016
  },
  {
    "Name": "Jeremy Likness",
    "Conference": "We Rise Women in Tech Conference 2017: Contain Your Excitement (Docker)",
    "From": "6/23/2017",
    "To": "6/24/2017",
    "Location": "Atlanta, GA",
    "Link": "https://werise.tech/sessions/2017/4/16/contain-your-excitement-hands-on-docker",
    "Latitude": 33.7489954,
    "Longitude": -84.3879824
  },
  {
    "Name": "Jeremy Likness",
    "Conference": "Atlanta Docker Meetup: Herding Cattle with Azure ACS",
    "From": "8/14/2017",
    "To": "8/14/2017",
    "Location": "Atlanta, GA",
    "Link": "https://blog.jeremylikness.com/herding-cattle-with-the-azure-container-service-acs-e329e7def93e",
    "Latitude": 33.7489954,
    "Longitude": -84.3879824
  },
  {
    "Name": "Jeremy Likness",
    "Conference": "Atlanta .NET User Group: Explore the Cosmos (DB) with .NET Core 2.0",
    "From": "8/28/2017",
    "To": "8/28/2017",
    "Location": "Alpharetta, GA",
    "Link": "https://blog.jeremylikness.com/explore-the-cosmos-db-with-net-core-2-0-aab48423dcdc",
    "Latitude": 34.0753762,
    "Longitude": -84.2940899
  },
  {
    "Name": "Jeremy Likness",
    "Conference": "Atlanta Code Camp 2017: Serverless .NET",
    "From": "9/16/2017",
    "To": "9/16/2017",
    "Location": "Marietta, GA",
    "Link": "https://blog.jeremylikness.com/atlanta-code-camp-2017-serverless-net-da640edd59e9",
    "Latitude": 33.95260200000001,
    "Longitude": -84.5499327
  },
  {
    "Name": "Jeremy Likness",
    "Conference": "Google Developer Group Atlanta Meetup: Going Serverless",
    "From": "9/19/2017",
    "To": "9/19/2017",
    "Location": "Atlanta, GA",
    "Link": "https://blog.jeremylikness.com/google-developer-group-atlanta-serverless-node-js-functions-2ec8d987a4b1",
    "Latitude": 33.7489954,
    "Longitude": -84.3879824
  },
  {
    "Name": "Jeremy Likness",
    "Conference": "Connect.TECH 2017: All Day Node Camp and TypeScript for Node.js Presentation",
    "From": "9/20/2017",
    "To": "9/22/2017",
    "Location": "Atlanta, GA",
    "Link": "https://blog.jeremylikness.com/connect-tech-2017-node-js-and-typescript-8419b0e4d689",
    "Latitude": 33.7489954,
    "Longitude": -84.3879824
  },
  {
    "Name": "Jeremy Likness",
    "Conference": "Ignite",
    "From": "9/25/2017",
    "To": "9/29/2017",
    "Location": "Orlando, FL",
    "Link": "https://microsoft.com/ignite",
    "Latitude": 28.5383355,
    "Longitude": -81.3792365
  },
  {
    "Name": "Jeremy Likness",
    "Conference": "Microsoft Community Connections Charlotte",
    "From": "10/6/2017",
    "To": "10/7/2017",
    "Location": "Charlotte, NC",
    "Link": " ",
    "Latitude": 35.2270869,
    "Longitude": -80.8431267
  },
  {
    "Name": "Jeremy Likness",
    "Conference": "Cloud Storage and Bay Area Lambda Meetup: Code First, Going Serverless",
    "From": "10/17/2017",
    "To": "10/17/2017",
    "Location": "San Francisco, CA",
    "Link": "https://www.meetup.com/Cloud-Storage-Bay-Area/events/243386936/",
    "Latitude": 37.7749295,
    "Longitude": -122.4194155
  },
  {
    "Name": "Jeremy Likness",
    "Conference": "SF Microservices Meetup: Code First, Going Serverless",
    "From": "10/18/2017",
    "To": "10/18/2017",
    "Location": "Bay Area, CA",
    "Link": "https://www.meetup.com/SF-Microservices/events/243921541/",
    "Latitude": 37.8271784,
    "Longitude": -122.2913078
  },
  {
    "Name": "Jeremy Likness",
    "Conference": "SF Bay Area Meetup: Code First, Going Serverless",
    "From": "10/19/2017",
    "To": "10/19/2017",
    "Location": "Mountain View, CA",
    "Link": "https://www.meetup.com/microservices/events/243498016/",
    "Latitude": 37.3860517,
    "Longitude": -122.0838511
  },
  {
    "Name": "Jeremy Likness",
    "Conference": "PASS Summit 2017: Web API Design Workshop and Swagger Presentation",
    "From": "10/30/2017",
    "To": "11/3/2017",
    "Location": "Seattle, WA",
    "Link": "http://www.pass.org/Summit/2017/Speakers/Details.aspx?spid=5787",
    "Latitude": 47.6062095,
    "Longitude": -122.3320708
  },
  {
    "Name": "Jeremy Likness",
    "Conference": "Azure in the ATL: Event Grid, Glue for the Internet",
    "From": "2/20/2018",
    "To": "2/20/2018",
    "Location": "Atlanta, GA",
    "Link": "https://www.meetup.com/Azure-in-the-ATL/events/243464450/",
    "Latitude": 33.7489954,
    "Longitude": -84.3879824
  },
  {
    "Name": "Jeremy Likness",
    "Conference": "Ignite",
    "From": "9/25/2017",
    "To": "9/29/2017",
    "Location": "Orlando",
    "Link": "https://www.microsoft.com/en-us/ignite/",
    "Latitude": 28.5383355,
    "Longitude": -81.3792365
  },
  {
    "Name": "John Papa",
    "Conference": "ngAtl",
    "From": "1/30/2017",
    "To": "2/2/2017",
    "Location": "Atlanta, GA",
    "Link": "http://ng-atl.org/",
    "Latitude": 33.7489954,
    "Longitude": -84.3879824
  },
  {
    "Name": "John Papa",
    "Conference": "ngConf",
    "From": "4/18/2018",
    "To": "4/29/2018",
    "Location": "Salt Lake City",
    "Link": "https://www.ng-conf.org/",
    "Latitude": 40.7607793,
    "Longitude": -111.8910474
  },
  {
    "Name": "John Papa",
    "Conference": "Pluralsight Live",
    "From": "9/18/2017",
    "To": "9/21/2017",
    "Location": "Salt Lake City",
    "Link": "https://www.pluralsight.com/event-details/2017",
    "Latitude": 40.7607793,
    "Longitude": -111.8910474
  },
  {
    "Name": "John Papa",
    "Conference": "Ignite",
    "From": "9/24/2017",
    "To": "9/24/2017",
    "Location": "Orlando",
    "Link": "https://www.microsoft.com/en-us/ignite/default.aspx",
    "Latitude": 28.5383355,
    "Longitude": -81.3792365
  },
  {
    "Name": "John Papa",
    "Conference": "AngularMix",
    "From": "10/10/2017",
    "To": "10/12/2017",
    "Location": "Orlando",
    "Link": "http://angularmix.com",
    "Latitude": 28.5383355,
    "Longitude": -81.3792365
  },
  {
    "Name": "John Papa",
    "Conference": "DevUp",
    "From": "10/14/2017",
    "To": "10/16/2017",
    "Location": "St. Louis",
    "Link": "http://devupconf.org/",
    "Latitude": 38.6270025,
    "Longitude": -90.19940419999999
  },
  {
    "Name": "John Papa",
    "Conference": "AngleBrackets",
    "From": "10/29/2017",
    "To": "10/31/2017",
    "Location": "Las Vegas",
    "Link": "htto://anglebrackets.org",
    "Latitude": 36.1699412,
    "Longitude": -115.1398296
  },
  {
    "Name": "John Papa",
    "Conference": "360 Live",
    "From": "11/15/2017",
    "To": "11/17/2017",
    "Location": "Orlando",
    "Link": "https://live360events.com/events/orlando-2017/home.aspx",
    "Latitude": 28.5383355,
    "Longitude": -81.3792365
  },
  {
    "Name": "John Papa",
    "Conference": "All Things Open",
    "From": "10/23/2017",
    "To": "10/24/2017",
    "Location": "Raleigh",
    "Link": "https://allthingsopen.org/",
    "Latitude": 35.7795897,
    "Longitude": -78.6381787
  },
  {
    "Name": "Laurent Bugnion",
    "Conference": "MVVM Cross Hackfest",
    "From": "8/31/2017",
    "To": "9/2/2017",
    "Location": "Amsterdam",
    "Link": "",
    "Latitude": 52.3702157,
    "Longitude": 4.895167900000001
  },
  {
    "Name": "Laurent Bugnion",
    "Conference": "MonkeyFest",
    "From": "9/21/2017",
    "To": "9/23/2017",
    "Location": "Singapore",
    "Link": "",
    "Latitude": 1.352083,
    "Longitude": 103.819836
  },
  {
    "Name": "Matt Soucoup",
    "Conference": "Indy.Code()",
    "From": "3/23/2017",
    "To": "3/31/2017",
    "Location": "Indianapolis",
    "Link": "https://indycode.amegala.com/",
    "Latitude": 39.768403,
    "Longitude": -86.158068
  },
  {
    "Name": "Matt Soucoup",
    "Conference": "That Conference",
    "From": "8/3/2017",
    "To": "8/9/2017",
    "Location": "Wisconsin Dells",
    "Link": "https://www.thatconference.com",
    "Latitude": 43.6274794,
    "Longitude": -89.7709579
  },
  {
    "Name": "Matt Soucoup",
    "Conference": "MKE DOT NET",
    "From": "9/7/2017",
    "To": "9/8/2017",
    "Location": "Milwaukee",
    "Link": "http://www.mkedotnet.com/",
    "Latitude": 43.0379848,
    "Longitude": -87.91082949999999
  },
  {
    "Name": "Matt Soucoup",
    "Conference": "VSLive",
    "From": "9/19/2017",
    "To": "9/21/2017",
    "Location": "Chicago",
    "Link": "https://vslive.com/Events/Chicago-2017/Home.aspx",
    "Latitude": 41.8781136,
    "Longitude": -87.6297982
  },
  {
    "Name": "Matt Soucoup",
    "Conference": "Prairie.Code()",
    "From": "9/27/2017",
    "To": "9/29/2017",
    "Location": "Des Moines",
    "Link": "https://prairiecode.amegala.com",
    "Latitude": 41.6005448,
    "Longitude": -93.6091064
  },
  {
    "Name": "Matt Soucoup",
    "Conference": "Mobile Era",
    "From": "10/4/2017",
    "To": "10/6/2017",
    "Location": "Oslo",
    "Link": "https://mobileera.rocks",
    "Latitude": 59.9138688,
    "Longitude": 10.7522454
  },
  {
    "Name": "Matt Soucoup",
    "Conference": "CodeMash",
    "From": "1/8/2018",
    "To": "1/12/2018",
    "Location": "Sandusky",
    "Link": "https://codemash.org",
    "Latitude": 41.4489396,
    "Longitude": -82.7079605
  },
  {
    "Name": "Maxime Rouiller",
    "Conference": "Defi Montreal",
    "From": "9/4/2017",
    "To": "9/5/2017",
    "Location": "Montreal",
    "Link": "https://www.meetup.com/BelfastJUG/",
    "Latitude": 45.5016889,
    "Longitude": -73.567256
  },
  {
    "Name": "Maxime Rouiller",
    "Conference": "Instrumenting .NET Core Applications with Azure Application Insights",
    "From": "10/17/2017",
    "To": "10/17/2017",
    "Location": "Atlanta, GA",
    "Link": "http://2017.cssdevconf.com/",
    "Latitude": 33.7489954,
    "Longitude": -84.3879824
  },
  {
    "Name": "Paige Bailey",
    "Conference": "Houston Data Science Meetup",
    "From": "7/6/2017",
    "To": "7/6/2017",
    "Location": "Houston, TX",
    "Link": "https://www.meetup.com/Houston-Data-Science/events/240566684/",
    "Latitude": 29.7604267,
    "Longitude": -95.3698028
  },
  {
    "Name": "Paige Bailey",
    "Conference": "Houston Data Science Meetup",
    "From": "7/22/2017",
    "To": "7/22/2017",
    "Location": "Houston, TX",
    "Link": "https://www.meetup.com/Houston-Data-Science/events/240417376/?_cookie-check=rmfKwWUeuVIzJ7Sk",
    "Latitude": 29.7604267,
    "Longitude": -95.3698028
  },
  {
    "Name": "Paige Bailey",
    "Conference": "Data & AI Summit",
    "From": "8/25/2017",
    "To": "8/25/2017",
    "Location": "Online",
    "Link": "https://onlinexperiences.com/scripts/Server.nxp?LASCmd=AI:4;F:QS!10100&ShowKey=42620",
    "Latitude": 36.146636,
    "Longitude": -95.90194
  },
  {
    "Name": "Paige Bailey",
    "Conference": "Quicken Loan Technology Conference",
    "From": "9/19/2017",
    "To": "9/20/2017",
    "Location": "Detroit, MI",
    "Link": "http://qltechcon.com/index.html",
    "Latitude": 42.331427,
    "Longitude": -83.0457538
  },
  {
    "Name": "Paige Bailey",
    "Conference": "Florida PyCon",
    "From": "10/7/2017",
    "To": "10/7/2017",
    "Location": "Miami, FL",
    "Link": "http://flpy.org/",
    "Latitude": 25.7616798,
    "Longitude": -80.1917902
  },
  {
    "Name": "Paige Bailey",
    "Conference": "CodeCamp NYC 2017",
    "From": "10/14/2017",
    "To": "10/15/2017",
    "Location": "New York City, NY",
    "Link": "http://codecampnyc.org/selected-sessions/",
    "Latitude": 40.7127753,
    "Longitude": -74.0059728
  },
  {
    "Name": "Paige Bailey",
    "Conference": "Jazoon Tech Days",
    "From": "10/26/2017",
    "To": "10/27/2017",
    "Location": "Zurich",
    "Link": "http://jazoon.com/",
    "Latitude": 47.3768866,
    "Longitude": 8.541694
  },
  {
    "Name": "Paige Bailey",
    "Conference": "HackTX",
    "From": "10/28/2017",
    "To": "10/29/2017",
    "Location": "Austin, TX",
    "Link": "https://hacktx.com/",
    "Latitude": 30.267153,
    "Longitude": -97.7430608
  },
  {
    "Name": "Paige Bailey",
    "Conference": "Invent It. Build It. 2017",
    "From": "10/28/2017",
    "To": "10/28/2017",
    "Location": "Austin, TX",
    "Link": "http://societyofwomenengineers.swe.org/invent-it-build-it",
    "Latitude": 30.267153,
    "Longitude": -97.7430608
  },
  {
    "Name": "Paige Bailey",
    "Conference": "Developer Week - Austin",
    "From": "11/7/2017",
    "To": "11/9/2017",
    "Location": "Austin, TX",
    "Link": "http://www.developerweek.com/Austin/",
    "Latitude": 30.267153,
    "Longitude": -97.7430608
  },
  {
    "Name": "Paige Bailey",
    "Conference": "DevReach Bulgaria",
    "From": "11/13/2017",
    "To": "11/15/2017",
    "Location": "Bulgaria",
    "Link": "http://devreach.com/",
    "Latitude": 42.733883,
    "Longitude": 25.48583
  },
  {
    "Name": "Paige Bailey",
    "Conference": "CodeMotion: Madrid",
    "From": "11/24/2017",
    "To": "11/25/2017",
    "Location": "Madrid",
    "Link": "https://2017.codemotion.es/en/",
    "Latitude": 40.4167754,
    "Longitude": -3.7037902
  },
  {
    "Name": "Paige Bailey",
    "Conference": "PyData NYC",
    "From": "11/27/2017",
    "To": "11/30/2017",
    "Location": "New York City, NY",
    "Link": "https://pydata.org/nyc2017/",
    "Latitude": 40.7127753,
    "Longitude": -74.0059728
  },
  {
    "Name": "Ruediger Schickhaus",
    "Conference": "Red Hat Forum",
    "From": "10/24/2017",
    "To": "10/24/2017",
    "Location": "Vienna",
    "Link": "https://www.meetup.com/Code-Career-Academy-Meetups-Gwinnett/events/237645432/",
    "Latitude": 48.2081743,
    "Longitude": 16.3738189
  },
  {
    "Name": "Sarah Drasner",
    "Conference": "SVG Summit",
    "From": "2/15/2017",
    "To": "2/15/2017",
    "Location": "Online",
    "Link": "http://environmentsforhumans.com/2017/svg-summit/",
    "Latitude": 36.146636,
    "Longitude": -95.90194
  },
  {
    "Name": "Sarah Drasner",
    "Conference": "Web Animation Workshops",
    "From": "2/20/2017",
    "To": "2/20/2017",
    "Location": "San Francisco",
    "Link": "https://webanimationworkshops.com/",
    "Latitude": 37.7749295,
    "Longitude": -122.4194155
  },
  {
    "Name": "Sarah Drasner",
    "Conference": "ForwardJS",
    "From": "3/4/2017",
    "To": "3/4/2017",
    "Location": "San Francisco",
    "Link": "https://forwardjs.com/",
    "Latitude": 37.7749295,
    "Longitude": -122.4194155
  },
  {
    "Name": "Sarah Drasner",
    "Conference": "SFHTML5",
    "From": "4/7/2017",
    "To": "4/7/2017",
    "Location": "San Francisco",
    "Link": "https://www.meetup.com/sfhtml5/?_cookie-check=SZNcxB3cqM9_CCux",
    "Latitude": 37.7749295,
    "Longitude": -122.4194155
  },
  {
    "Name": "Sarah Drasner",
    "Conference": "Smashing Conf",
    "From": "4/4/2017",
    "To": "4/6/2017",
    "Location": "San Francisco",
    "Link": "https://smashingconf.com/workshops/sarah-drasner",
    "Latitude": 37.7749295,
    "Longitude": -122.4194155
  },
  {
    "Name": "Sarah Drasner",
    "Conference": "FITC Toronto",
    "From": "4/23/2017",
    "To": "4/25/2017",
    "Location": "Toronto, Canada",
    "Link": "http://fitc.ca/event/to17/",
    "Latitude": 43.653226,
    "Longitude": -79.3831843
  },
  {
    "Name": "Sarah Drasner",
    "Conference": "Beyond Tellerand",
    "From": "5/15/2017",
    "To": "5/17/2017",
    "Location": "Dusseldorf, Germany",
    "Link": "https://beyondtellerrand.com/",
    "Latitude": 51.2277411,
    "Longitude": 6.7734556
  },
  {
    "Name": "Sarah Drasner",
    "Conference": "Beyond Tellerand Workshop Days",
    "From": "5/18/2017",
    "To": "5/18/2017",
    "Location": "Dusseldorf, Germany",
    "Link": "https://beyondtellerrand.com/",
    "Latitude": 51.2277411,
    "Longitude": 6.7734556
  },
  {
    "Name": "Sarah Drasner",
    "Conference": "React Europe",
    "From": "5/18/2017",
    "To": "5/19/2017",
    "Location": "Paris",
    "Link": "https://www.react-europe.org/",
    "Latitude": 48.856614,
    "Longitude": 2.3522219
  },
  {
    "Name": "Sarah Drasner",
    "Conference": "Awwwards Conference",
    "From": "6/1/2017",
    "To": "6/2/2017",
    "Location": "Los Angeles",
    "Link": "https://conference.awwwards.com/",
    "Latitude": 34.0522342,
    "Longitude": -118.2436849
  },
  {
    "Name": "Sarah Drasner",
    "Conference": "Vue Conf",
    "From": "6/22/2017",
    "To": "6/23/2017",
    "Location": "Wroclaw, Poland",
    "Link": "https://conf.vuejs.org/",
    "Latitude": 51.1078852,
    "Longitude": 17.0385376
  },
  {
    "Name": "Sarah Drasner",
    "Conference": "Animating Vue Workshop",
    "From": "6/21/2017",
    "To": "6/21/2017",
    "Location": "Wroclaw, Poland",
    "Link": "https://conf.vuejs.org/workshops",
    "Latitude": 51.1078852,
    "Longitude": 17.0385376
  },
  {
    "Name": "Sarah Drasner",
    "Conference": "JS Channel",
    "From": "7/28/2017",
    "To": "7/29/2017",
    "Location": "Bangalore, India",
    "Link": "http://jschannel.com/#/",
    "Latitude": 12.9715987,
    "Longitude": 77.5945627
  },
  {
    "Name": "Sarah Drasner",
    "Conference": "Develop Denver",
    "From": "8/10/2017",
    "To": "8/11/2017",
    "Location": "Denver, Colorado",
    "Link": "https://developdenver.org/",
    "Latitude": 39.7392358,
    "Longitude": -104.990251
  },
  {
    "Name": "Sarah Drasner",
    "Conference": "Frontend Conference",
    "From": "8/28/2017",
    "To": "9/1/2017",
    "Location": "Zurich",
    "Link": "https://www.frontendconf.ch/",
    "Latitude": 47.3768866,
    "Longitude": 8.541694
  },
  {
    "Name": "Sarah Drasner",
    "Conference": "Frontend Conference Workshops",
    "From": "9/2/2017",
    "To": "9/2/2017",
    "Location": "Zurich",
    "Link": "https://www.frontendconf.ch/workshops/from-animations-to-data-visualisation",
    "Latitude": 47.3768866,
    "Longitude": 8.541694
  },
  {
    "Name": "Sarah Drasner",
    "Conference": "Web Animation Workshops",
    "From": "9/2/2017",
    "To": "9/5/2017",
    "Location": "Paris",
    "Link": "webanimationworkshops.com",
    "Latitude": 48.856614,
    "Longitude": 2.3522219
  },
  {
    "Name": "Sarah Drasner",
    "Conference": "Fullstack Fest",
    "From": "9/6/2017",
    "To": "9/8/2017",
    "Location": "Barcelona, Spain",
    "Link": "https://2017.fullstackfest.com/",
    "Latitude": 41.3850639,
    "Longitude": 2.1734035
  },
  {
    "Name": "Sarah Drasner",
    "Conference": "Web Animation Workshops",
    "From": "9/16/2017",
    "To": "9/19/2017",
    "Location": "Portland",
    "Link": "webanimationworkshops.com",
    "Latitude": 45.5230622,
    "Longitude": -122.6764815
  },
  {
    "Name": "Sarah Drasner",
    "Conference": "D3 Unconf - Keynote",
    "From": "9/21/2017",
    "To": "9/22/2017",
    "Location": "San Francisco",
    "Link": "http://visfest.com/d3unconf-2017/",
    "Latitude": 37.7749295,
    "Longitude": -122.4194155
  },
  {
    "Name": "Sarah Drasner",
    "Conference": "The Web Unleashed Workshop",
    "From": "9/24/2017",
    "To": "9/24/2017",
    "Location": "Toronto, Canada",
    "Link": "http://fitc.ca/presentation/workshop-building-animating-svgs/",
    "Latitude": 43.653226,
    "Longitude": -79.3831843
  },
  {
    "Name": "Sarah Drasner",
    "Conference": "CSS Dev Conf- featured speaker",
    "From": "10/6/2017",
    "To": "10/10/2017",
    "Location": "New Orleans",
    "Link": "http://2017.cssdevconf.com/",
    "Latitude": 29.95106579999999,
    "Longitude": -90.0715323
  },
  {
    "Name": "Sarah Drasner",
    "Conference": "CSS Dev Conf Workshops",
    "From": "10/11/2017",
    "To": "10/11/2017",
    "Location": "New Orleans",
    "Link": "http://2017.cssdevconf.com/",
    "Latitude": 29.95106579999999,
    "Longitude": -90.0715323
  },
  {
    "Name": "Sarah Drasner",
    "Conference": "Web Animation Workshops",
    "From": "10/12/2017",
    "To": "10/13/2017",
    "Location": "Pittsburgh",
    "Link": "webanimationworkshops.com",
    "Latitude": 40.44062479999999,
    "Longitude": -79.9958864
  },
  {
    "Name": "Sarah Drasner",
    "Conference": "Smashing Conf",
    "From": "10/17/2017",
    "To": "10/18/2017",
    "Location": "Barcelona, Spain",
    "Link": "https://smashingconf.com/barcelona-2017/workshops",
    "Latitude": 41.3850639,
    "Longitude": 2.1734035
  },
  {
    "Name": "Sarah Drasner",
    "Conference": "Smashing Conf Workshops",
    "From": "10/19/2017",
    "To": "10/19/2017",
    "Location": "Barcelona, Spain",
    "Link": "https://smashingconf.com/barcelona-2017/workshops",
    "Latitude": 41.3850639,
    "Longitude": 2.1734035
  },
  {
    "Name": "Sarah Drasner",
    "Conference": "Reactive Conf",
    "From": "10/25/2017",
    "To": "10/28/2017",
    "Location": "Bratislava",
    "Link": "https://reactiveconf.com/",
    "Latitude": 48.1485965,
    "Longitude": 17.1077478
  },
  {
    "Name": "Sarah Drasner",
    "Conference": "You Gotta Love Frontend",
    "From": "10/30/2017",
    "To": "10/31/2017",
    "Location": "Tel Aviv",
    "Link": "https://yougottalovefrontend.com/",
    "Latitude": 32.0852999,
    "Longitude": 34.78176759999999
  },
  {
    "Name": "Sarah Drasner",
    "Conference": "Vue Conf Amsterdam",
    "From": "2/14/2018",
    "To": "2/16/2018",
    "Location": "Amsterdam",
    "Link": "TBD",
    "Latitude": 52.3702157,
    "Longitude": 4.895167900000001
  },
  {
    "Name": "Sarah Drasner",
    "Conference": "Fullstack 2018 - Keynote",
    "From": "7/11/2018",
    "To": "7/13/2018",
    "Location": "London, UK",
    "Link": "https://skillsmatter.com/conferences/9815-fullstack-2018-the-conference-on-javascript-node-and-internet-of-things",
    "Latitude": 51.5073509,
    "Longitude": -0.1277583
  },
  {
    "Name": "Sarah Drasner",
    "Conference": "Frontend United",
    "From": "5/31/2018",
    "To": "6/1/2018",
    "Location": "Utrecht",
    "Link": "http://frontendunited.org/",
    "Latitude": 52.09073739999999,
    "Longitude": 5.1214201
  },
  {
    "Name": "Scott Cate",
    "Conference": "DLD 2017 Tel Aviv Israel",
    "From": "9/4/2017",
    "To": "9/7/2017",
    "Location": "Tel Aviv",
    "Link": "",
    "Latitude": 32.0852999,
    "Longitude": 34.78176759999999
  },
  {
    "Name": "Shayne Boyer",
    "Conference": "DevIntersection Europe",
    "From": "9/18/2017",
    "To": "9/19/2017",
    "Location": "Stockholm",
    "Link": "http://devintersectioneurope.com",
    "Latitude": 59.32932349999999,
    "Longitude": 18.0685808
  },
  {
    "Name": "Shayne Boyer",
    "Conference": "AngularMix",
    "From": "10/10/2017",
    "To": "10/12/2017",
    "Location": "Orlando",
    "Link": "https://angularmix.com/",
    "Latitude": 28.5383355,
    "Longitude": -81.3792365
  },
  {
    "Name": "Shayne Boyer",
    "Conference": "DevIntersection",
    "From": "10/29/2017",
    "To": "10/31/2017",
    "Location": "Las Vegas",
    "Link": "http://devintersection.com",
    "Latitude": 36.1699412,
    "Longitude": -115.1398296
  },
  {
    "Name": "Shayne Boyer",
    "Conference": "Dockercon Europe",
    "From": "6/28/2018",
    "To": "10/19/2018",
    "Location": "Copenhagen",
    "Link": "https://europe-2017.dockercon.com/",
    "Latitude": 55.6760968,
    "Longitude": 12.5683372
  },
  {
    "Name": "Shayne Boyer",
    "Conference": "Ignite",
    "From": "9/25/2017",
    "To": "9/29/2017",
    "Location": "Orlando",
    "Link": "https://www.microsoft.com/en-us/ignite/",
    "Latitude": 28.5383355,
    "Longitude": -81.3792365
  },
  {
    "Name": "Simona Cotin",
    "Conference": "DLD 2017 Tel Aviv Israel",
    "From": "9/4/2017",
    "To": "9/7/2017",
    "Location": "Tel Aviv",
    "Link": "",
    "Latitude": 32.0852999,
    "Longitude": 34.78176759999999
  },
  {
    "Name": "Simona Cotin",
    "Conference": "DLD Tel Aviv",
    "From": "9/5/2017",
    "To": "9/8/2017",
    "Location": "Tel Aviv",
    "Link": "",
    "Latitude": 32.0852999,
    "Longitude": 34.78176759999999
  },
  {
    "Name": "Simona Cotin",
    "Conference": "PortoTechHub",
    "From": "9/20/2017",
    "To": "9/20/2017",
    "Location": "Porto, Portugal",
    "Link": "",
    "Latitude": 41.1579438,
    "Longitude": -8.629105299999999
  },
  {
    "Name": "Simona Cotin",
    "Conference": "Frontend Connect",
    "From": "9/22/2017",
    "To": "9/23/2017",
    "Location": "Warsaw, Poland",
    "Link": "",
    "Latitude": 52.2296756,
    "Longitude": 21.0122287
  },
  {
    "Name": "Simona Cotin",
    "Conference": "AngularMix",
    "From": "10/10/2017",
    "To": "10/12/2017",
    "Location": "Orlando",
    "Link": "",
    "Latitude": 28.5383355,
    "Longitude": -81.3792365
  },
  {
    "Name": "Simona Cotin",
    "Conference": "Plone",
    "From": "10/18/2017",
    "To": "10/20/2017",
    "Location": "Barcelona, Spain",
    "Link": "",
    "Latitude": 41.3850639,
    "Longitude": 2.1734035
  },
  {
    "Name": "Simona Cotin",
    "Conference": "Gdg Nantes",
    "From": "10/19/2017",
    "To": "10/20/2017",
    "Location": "Nantes, France",
    "Link": "",
    "Latitude": 47.218371,
    "Longitude": -1.553621
  },
  {
    "Name": "Simona Cotin",
    "Conference": "Nodeconf",
    "From": "11/2/2017",
    "To": "11/8/2017",
    "Location": "Kilkenny, Ireland",
    "Link": "",
    "Latitude": 52.6541454,
    "Longitude": -7.2447879
  },
  {
    "Name": "Simona Cotin",
    "Conference": "Angular Connect",
    "From": "11/7/2017",
    "To": "11/8/2017",
    "Location": "London, UK",
    "Link": "",
    "Latitude": 51.5073509,
    "Longitude": -0.1277583
  },
  {
    "Name": "Simona Cotin",
    "Conference": "ngAtl",
    "From": "1/19/2018",
    "To": "2/2/2018",
    "Location": "Atlanta",
    "Link": "",
    "Latitude": 33.7489954,
    "Longitude": -84.3879824
  },
  {
    "Name": "Steven Murawski",
    "Conference": "PowerShell + DevOps Global Summit",
    "From": "4/9/2017",
    "To": "4/12/2017",
    "Location": "Bellevue, WA",
    "Link": "https://powershell.org/summit/",
    "Latitude": 47.6101497,
    "Longitude": -122.2015159
  },
  {
    "Name": "Steven Murawski",
    "Conference": "DevIntersection",
    "From": "5/20/2017",
    "To": "5/24/2017",
    "Location": "Orlando, FL",
    "Link": "http://devintersection.com",
    "Latitude": 28.5383355,
    "Longitude": -81.3792365
  },
  {
    "Name": "Steven Murawski",
    "Conference": "ChefConf",
    "From": "5/21/2017",
    "To": "5/24/2017",
    "Location": "Austin, TX",
    "Link": "https://chefconf.chef.io/2017/",
    "Latitude": 30.267153,
    "Longitude": -97.7430608
  },
  {
    "Name": "Steven Murawski",
    "Conference": "DevOps (DSC) Camp",
    "From": "7/27/2017",
    "To": "7/30/2017",
    "Location": "Las Vegas, NV",
    "Link": "https://www.eventbrite.com/e/devopsdsc-camp-2017-tickets-31137067808#",
    "Latitude": 36.1699412,
    "Longitude": -115.1398296
  },
  {
    "Name": "Steven Murawski",
    "Conference": "Wisconsin VMWare Users Group (WI VMUG)",
    "From": "8/3/2017",
    "To": "8/3/2017",
    "Location": "Appleton, WI",
    "Link": "http://www.wivmug.org/2017/07/thursday-august-3rd-2017-appleton-meeting/",
    "Latitude": 44.2619309,
    "Longitude": -88.41538469999999
  },
  {
    "Name": "Steven Murawski",
    "Conference": "WinOps",
    "From": "9/20/2017",
    "To": "9/21/2017",
    "Location": "London",
    "Link": "https://www.winops.org/london/",
    "Latitude": 51.5073509,
    "Longitude": -0.1277583
  },
  {
    "Name": "Steven Murawski",
    "Conference": "PSDay UK",
    "From": "9/22/2017",
    "To": "9/22/2017",
    "Location": "London",
    "Link": "https://psday.uk",
    "Latitude": 51.5073509,
    "Longitude": -0.1277583
  },
  {
    "Name": "Steven Murawski",
    "Conference": "London PowerShell Meetup",
    "From": "10/12/2017",
    "To": "10/12/2017",
    "Location": "London",
    "Link": "https://www.meetup.com/PowerShell-London-UK/events/243680102/",
    "Latitude": 51.5073509,
    "Longitude": -0.1277583
  },
  {
    "Name": "Steven Murawski",
    "Conference": "DevOpsDays - Singapore",
    "From": "10/24/2017",
    "To": "10/26/2017",
    "Location": "Singapore",
    "Link": "https://www.devopsdays.org/events/2017-singapore/",
    "Latitude": 1.352083,
    "Longitude": 103.819836
  },
  {
    "Name": "Steven Murawski",
    "Conference": "PowerShell Conference Asia",
    "From": "10/26/2017",
    "To": "10/28/2017",
    "Location": "Singapore",
    "Link": "http://psconf.asia/",
    "Latitude": 1.352083,
    "Longitude": 103.819836
  },
  {
    "Name": "Steven Murawski",
    "Conference": "Chef Summit",
    "From": "10/10/2017",
    "To": "10/11/2017",
    "Location": "London",
    "Link": "https://www.chef.io/summits/",
    "Latitude": 51.5073509,
    "Longitude": -0.1277583
  }
]