[
  {
    "Name": "Asim Hussain",
    "Conference": "Lviv JS",
    "From": "Aug 26, 2017",
    "To": "Aug 26, 2017",
    "Location": "Lviv, Ukraine",
    "Link": "",
    "Latitude": 49.839683,
    "Longitude": 24.029717
  },
  {
    "Name": "Sarah Drasner",
    "Conference": "Frontend Conference",
    "From": "Aug 31, 2017",
    "To": "Sep 1, 2017",
    "Location": "Zurich",
    "Link": "https://www.frontendconf.ch/",
    "Latitude": 47.3768866,
    "Longitude": 8.541694
  },
  {
    "Name": "Sarah Drasner",
    "Conference": "Frontend Conference Workshops",
    "From": "Sep 2, 2017",
    "To": "Sep 2, 2017",
    "Location": "Zurich",
    "Link": "https://www.frontendconf.ch/workshops",
    "Latitude": 47.3768866,
    "Longitude": 8.541694
  },
  {
    "Name": "Sarah Drasner",
    "Conference": "Web Animation Workshops",
    "From": "Sep 4, 2017",
    "To": "Sep 5, 2017",
    "Location": "Paris",
    "Link": "https://webanimationworkshops.com/"
  },
  {
    "Name": "Simona Cotin",
    "Conference": "DLD Tel Aviv",
    "From": "Sep 6, 2017",
    "To": "Sep 8, 2017",
    "Location": "Tel Aviv",
    "Link": "https://dldtelaviv.com/",
    "Latitude": 32.0852999,
    "Longitude": 34.78176759999999
  },
  {
    "Name": "Sarah Drasner",
    "Conference": "Fullstack Fest",
    "From": "Sep 7, 2017",
    "To": "Sep 8, 2017",
    "Location": "Barcelona, Spain",
    "Link": "https://2017.fullstackfest.com/",
    "Latitude": 41.3850639,
    "Longitude": 2.1734035
  },
  {
    "Name": "Sarah Drasner",
    "Conference": "Web Animation Workshops",
    "From": "Sep 18, 2017",
    "To": "Sep 19, 2017",
    "Location": "Portland",
    "Link": "https://webanimationworkshops.com/",
    "Latitude": 45.5230622,
    "Longitude": -122.6764815
  },
  {
    "Name": "John Papa",
    "Conference": "Pluralsight Live",
    "From": "Sep 19, 2017",
    "To": "Sep 21, 2017",
    "Location": "Salt Lake City",
    "Link": "https://www.pluralsight.com/event-details/2017/live-2017",
    "Latitude": 40.7607793,
    "Longitude": -111.8910474
  },
  {
    "Name": "Simona Cotin",
    "Conference": "PortoTechHub",
    "From": "Sep 20, 2017",
    "To": "Sep 20, 2017",
    "Location": "Porto, Portugal",
    "Link": "https://portotechhub.com/conference/",
    "Latitude": 41.1579438,
    "Longitude": -8.629105299999999
  },
  {
    "Name": "Burke Holland",
    "Conference": "ConnectJS",
    "From": "Sep 20, 2017",
    "To": "Sep 22, 2017",
    "Location": "Atlanta",
    "Link": ""
  },
  {
    "Name": "Asim Hussain",
    "Conference": "FrontEnd Con",
    "From": "Sep 21, 2017",
    "To": "Sep 22, 2017",
    "Location": "Warsaw, Poland",
    "Link": ""
  },
  {
    "Name": "Sarah Drasner",
    "Conference": "D3 Unconf - Keynote",
    "From": "Sep 21, 2017",
    "To": "Sep 22, 2017",
    "Location": "San Francisco",
    "Link": "http://visfest.com/d3unconf-2017/",
    "Latitude": 37.7749295,
    "Longitude": -122.4194155
  },
  {
    "Name": "Simona Cotin",
    "Conference": "Frontend Connect",
    "From": "Sep 22, 2017",
    "To": "Sep 23, 2017",
    "Location": "Warsaw, Poland",
    "Link": "http://frontend-con.io/ ",
    "Latitude": 52.2296756,
    "Longitude": 21.0122287
  },
  {
    "Name": "John Papa",
    "Conference": "Ignite",
    "From": "Sep 24, 2017",
    "To": "Sep 24, 2017",
    "Location": "Orlando",
    "Link": "https://www.microsoft.com/en-us/ignite/",
    "Latitude": 28.5383355,
    "Longitude": -81.3792365
  },
  {
    "Name": "Brian Clark",
    "Conference": "Ignite",
    "From": "Sep 24, 2017",
    "To": "Sep 29, 2017",
    "Location": "Orlando",
    "Link": "https://www.microsoft.com/en-us/ignite/",
    "Latitude": 28.5383355,
    "Longitude": -81.3792365
  },
  {
    "Name": "Sarah Drasner",
    "Conference": "The Web Unleashed Workshop",
    "From": "Sep 24, 2017",
    "To": "Sep 24, 2017",
    "Location": "Toronto, Canada",
    "Link": "http://fitc.ca/event/webu17/workshops/",
    "Latitude": 43.653226,
    "Longitude": -79.3831843
  },
  {
    "Name": "Sarah Drasner",
    "Conference": "The Web Unleashed",
    "From": "Sep 25, 2017",
    "To": "Sep 26, 2017",
    "Location": "Toronto, Canada",
    "Link": "http://fitc.ca/event/webu17/",
    "Latitude": 43.653226,
    "Longitude": -79.3831843
  },
  {
    "Name": "Burke Holland",
    "Conference": "The Web Unleashed",
    "From": "Sep 25, 2017",
    "To": "Sep 26, 2017",
    "Location": "Toronto, Canada",
    "Link": "",
    "Latitude": 43.653226,
    "Longitude": -79.3831843
  },
  {
    "Name": "Sarah Drasner",
    "Conference": "edUI Conf",
    "From": "Sep 27, 2017",
    "To": "Sep 27, 2017",
    "Location": "Virginia",
    "Link": "http://eduiconf.org/",
    "Latitude": 37.4315734,
    "Longitude": -78.6568942
  },
  {
    "Name": "Brian Clark",
    "Conference": "Node.js Interactive",
    "From": "Oct 4, 2017",
    "To": "Oct 6, 2017",
    "Location": "Vancouver",
    "Link": "http://events.linuxfoundation.org/events/node-interactive"
  },
  {
    "Name": "Sarah Drasner",
    "Conference": "CSS Dev Conf- featured speaker",
    "From": "Oct 9, 2017",
    "To": "Oct 10, 2017",
    "Location": "New Orleans",
    "Link": "http://2017.cssdevconf.com/",
    "Latitude": 29.95106579999999,
    "Longitude": -90.0715323
  },
  {
    "Name": "John Papa",
    "Conference": "AngularMix",
    "From": "Oct 10, 2017",
    "To": "Oct 12, 2017",
    "Location": "Orlando",
    "Link": "https://angularmix.com",
    "Latitude": 28.5383355,
    "Longitude": -81.3792365
  },
  {
    "Name": "Brian Clark",
    "Conference": "AngularMix",
    "From": "Oct 10, 2017",
    "To": "Oct 12, 2017",
    "Location": "Orlando",
    "Link": "https://angularmix.com",
    "Latitude": 28.5383355,
    "Longitude": -81.3792365
  },
  {
    "Name": "Simona Cotin",
    "Conference": "AngularMix",
    "From": "Oct 10, 2017",
    "To": "Oct 12, 2017",
    "Location": "Orlando",
    "Link": "https://angularmix.com/",
    "Latitude": 28.5383355,
    "Longitude": -81.3792365
  },
  {
    "Name": "Sarah Drasner",
    "Conference": "CSS Dev Conf Workshops",
    "From": "Oct 11, 2017",
    "To": "Oct 11, 2017",
    "Location": "New Orleans",
    "Link": "http://2017.cssdevconf.com/",
    "Latitude": 29.95106579999999,
    "Longitude": -90.0715323
  },
  {
    "Name": "Sarah Drasner",
    "Conference": "Web Animation Workshops",
    "From": "Oct 13, 2017",
    "To": "Oct 13, 2017",
    "Location": "Pittsburgh",
    "Link": "https://webanimationworkshops.com/",
    "Latitude": 40.44062479999999,
    "Longitude": -79.9958864
  },
  {
    "Name": "Burke Holland",
    "Conference": "DevUp",
    "From": "Oct 14, 2017",
    "To": "Oct 16, 2017",
    "Location": "St. Louis",
    "Link": "http://devupconf.org/",
    "Latitude": 38.6270025,
    "Longitude": -90.19940419999999
  },
  {
    "Name": "John Papa",
    "Conference": "DevUp",
    "From": "Oct 16, 2017",
    "To": "Oct 16, 2017",
    "Location": "St. Louis",
    "Link": "http://devupconf.org/",
    "Latitude": 38.6270025,
    "Longitude": -90.19940419999999
  },
  {
    "Name": "Sarah Drasner",
    "Conference": "Smashing Conf",
    "From": "Oct 17, 2017",
    "To": "Oct 18, 2017",
    "Location": "Barcelona, Spain",
    "Link": "https://smashingconf.com/barcelona-2017/",
    "Latitude": 41.3850639,
    "Longitude": 2.1734035
  },
  {
    "Name": "Simona Cotin",
    "Conference": "Plone",
    "From": "Oct 18, 2017",
    "To": "Oct 20, 2017",
    "Location": "Barcelona, Spain",
    "Link": "https://2017.ploneconf.org/ ",
    "Latitude": 41.3850639,
    "Longitude": 2.1734035
  },
  {
    "Name": "Asim Hussain",
    "Conference": "DefFest Nantes",
    "From": "Oct 19, 2017",
    "To": "Oct 20, 2017",
    "Location": "Nantes, France",
    "Link": "",
    "Latitude": 47.218371,
    "Longitude": -1.553621
  },
  {
    "Name": "Sarah Drasner",
    "Conference": "Smashing Conf Workshops",
    "From": "Oct 19, 2017",
    "To": "Oct 19, 2017",
    "Location": "Barcelona, Spain",
    "Link": "https://smashingconf.com/barcelona-2017/workshops",
    "Latitude": 41.3850639,
    "Longitude": 2.1734035
  },
  {
    "Name": "Simona Cotin",
    "Conference": "Gdg Nantes",
    "From": "Oct 19, 2017",
    "To": "Oct 20, 2017",
    "Location": "Nantes, France",
    "Link": "https://devfest.gdgnantes.com",
    "Latitude": 47.218371,
    "Longitude": -1.553621
  },
  {
    "Name": "Burke Holland",
    "Conference": "Certified Fresh",
    "From": "Oct 20, 2017",
    "To": "Oct 20, 2017",
    "Location": "Online",
    "Link": "",
    "Latitude": 33.655959,
    "Longitude": -111.929279
  },
  {
    "Name": "John Papa",
    "Conference": "All Things Open",
    "From": "Oct 23, 2017",
    "To": "Oct 24, 2017",
    "Location": "Raleigh",
    "Link": "https://allthingsopen.org/",
    "Latitude": 35.7795897,
    "Longitude": -78.6381787
  },
  {
    "Name": "Sarah Drasner",
    "Conference": "Reactive Conf",
    "From": "Oct 26, 2017",
    "To": "Oct 28, 2017",
    "Location": "Bratislava",
    "Link": "https://reactiveconf.com/",
    "Latitude": 48.1485965,
    "Longitude": 17.1077478
  },
  {
    "Name": "John Papa",
    "Conference": "AngleBrackets",
    "From": "Oct 29, 2017",
    "To": "Oct 31, 2017",
    "Location": "Las Vegas",
    "Link": "https://anglebrackets.org",
    "Latitude": 36.1699412,
    "Longitude": -115.1398296
  },
  {
    "Name": "Brian Clark",
    "Conference": "AngleBrackets",
    "From": "Oct 29, 2017",
    "To": "Oct 31, 2017",
    "Location": "Las Vegas",
    "Link": "https://anglebrackets.org",
    "Latitude": 36.1699412,
    "Longitude": -115.1398296
  },
  {
    "Name": "Sarah Drasner",
    "Conference": "You Gotta Love Frontend",
    "From": "Oct 30, 2017",
    "To": "Oct 31, 2017",
    "Location": "Tel Aviv",
    "Link": "https://yougottalovefrontend.com/",
    "Latitude": 32.0852999,
    "Longitude": 34.78176759999999
  },
  {
    "Name": "Burke Holland",
    "Conference": "Dev Intersection",
    "From": "Oct 31, 2017",
    "To": "Nov 2, 2017",
    "Location": "Las Vegas",
    "Link": "",
    "Latitude": 36.1699412,
    "Longitude": -115.1398296
  },
  {
    "Name": "Simona Cotin",
    "Conference": "Nodeconf",
    "From": "Nov 5, 2017",
    "To": "Nov 8, 2017",
    "Location": "Kilkenny, Ireland",
    "Link": "http://www.nodeconf.eu/",
    "Latitude": 52.6541454,
    "Longitude": -7.2447879
  },
  {
    "Name": "Asim Hussain",
    "Conference": "Angular Connect",
    "From": "Nov 7, 2017",
    "To": "Nov 8, 2017",
    "Location": "London, UK",
    "Link": "",
    "Latitude": 51.5073509,
    "Longitude": -0.1277583
  },
  {
    "Name": "Simona Cotin",
    "Conference": "Angular Connect",
    "From": "Nov 7, 2017",
    "To": "Nov 8, 2017",
    "Location": "London, UK",
    "Link": "http://angularconnect.com/  ",
    "Latitude": 51.5073509,
    "Longitude": -0.1277583
  },
  {
    "Name": "Burke Holland",
    "Conference": "DevReach",
    "From": "Nov 13, 2017",
    "To": "Nov 14, 2017",
    "Location": "Sofia Bulgaria",
    "Link": "",
    "Latitude": 42.6977082,
    "Longitude": 23.3218675
  },
  {
    "Name": "John Papa",
    "Conference": "360 Live",
    "From": "Nov 17, 2017",
    "To": "Nov 17, 2017",
    "Location": "Orlando",
    "Link": "https://live360events.com/events/orlando-2017/home.aspx",
    "Latitude": 28.5383355,
    "Longitude": -81.3792365
  },
  {
    "Name": "Brian Clark",
    "Conference": "Nodev",
    "From": "Nov 27, 2017",
    "To": "Nov 28, 2017",
    "Location": "Nashville",
    "Link": "https://nodev.org",
    "Latitude": 36.1626638,
    "Longitude": -86.7816016
  },
  {
    "Name": "John Papa",
    "Conference": "ngAtl",
    "From": "Jan 30, 2018",
    "To": "Feb 2, 2018",
    "Location": "Atlanta",
    "Link": "http://ng-atl.org/",
    "Latitude": 33.7489954,
    "Longitude": -84.3879824
  },
  {
    "Name": "Brian Clark",
    "Conference": "ngAtl",
    "From": "Jan 30, 2018",
    "To": "Feb 2, 2018",
    "Location": "Atlanta",
    "Link": "https://ng-atl.org",
    "Latitude": 33.7489954,
    "Longitude": -84.3879824
  },
  {
    "Name": "Simona Cotin",
    "Conference": "ngAtl",
    "From": "Jan 30, 2018",
    "To": "Feb 2, 2018",
    "Location": "Atlanta",
    "Link": "http://ng-atl.org/",
    "Latitude": 33.7489954,
    "Longitude": -84.3879824
  },
  {
    "Name": "Sarah Drasner",
    "Conference": "Vue Conf Amsterdam",
    "From": "Feb 14, 2018",
    "To": "Feb 15, 2018",
    "Location": "Amsterdam",
    "Link": "site underway",
    "Latitude": 52.3702157,
    "Longitude": 4.895167900000001
  },
  {
    "Name": "John Papa",
    "Conference": "ngConf",
    "From": "Apr 18, 2018",
    "To": "Apr 20, 2018",
    "Location": "Salt Lake City",
    "Link": "https://www.ng-conf.org/",
    "Latitude": 40.7607793,
    "Longitude": -111.8910474
  },
  {
    "Name": "Sarah Drasner",
    "Conference": "Fullstack 2018 - Keynote",
    "From": "Jul 11 2018",
    "To": "Jul 13 2018",
    "Location": "London, UK",
    "Link": "https://skillsmatter.com/conferences/9815-fullstack-2018-the-conference-on-javascript-node-and-internet-of-things",
    "Latitude": 51.5073509,
    "Longitude": -0.1277583
  },
  {
    "Name": "Sarah Drasner",
    "Conference": "JS Heroes",
    "From": "Apr 18 2017",
    "To": "Apr 21 2017",
    "Location": "Romania",
    "Link": "https://jsheroes.io/"
  }
]